{
  "BaseUrl": "http://192.168.42.98/WebApiAppCiudadana",
  "OauthUserName": "admin",
  "OauthPassword": "admin",
  "OauthGrantType": "password",
  "ContactAddress": "Matamoros 1717 Pte.\nCol. Obispado\nMonterrey, N.L., México",
  "ContactPhone": "073",
  "PaymentCenterList": [
    {
      "Name": "Oficina Comercial Obispado",
      "Street": "Matamoros Pte.",
      "Number": "1717",
      "Colony": "Obispado",
      "PostalCode": "64010",
      "Town": "Monterrey",
      "State": "N.L.",
      "Telephone": "073 ó 2033-6999",
      "Latitude": 25.6738801,
      "Longitude": -100.3390091,
      "Address": "Matamoros Pte. 1717, Obispado, Monterrey, N.L. Tel. 073 ó 2033-6999"
    },
    {
      "Name": "Gerencia Comercial Centro",
      "Street": "Juan Ignacio Ramón Pte.",
      "Number": "331",
      "Colony": "Centro",
      "PostalCode": "64000",
      "Town": "Monterrey",
      "State": "N.L.",
      "Telephone": "073 ó 2033-6999",
      "Latitude": 25.6716536,
      "Longitude": -100.3181896,
      "Address": "Juan Ignacio Ramón Pte. 331, Centro, Monterrey, N.L. Tel. 073 ó 2033-6999"
    },
    {
      "Name": "Gerencia Comercial San Nicolás",
      "Street": "Ave. Universidad Nte.",
      "Number": "900",
      "Colony": "Chapultepec",
      "PostalCode": "66450",
      "Town": "San Nicolás de los Garza",
      "State": "N.L.",
      "Telephone": "073 ó 2033-6999",
      "Latitude": 25.7476216,
      "Longitude": -100.2998065,
      "Address": "Ave. Universidad Nte. 900, Chapultepec, San Nicolás de los Garza, N.L. Tel. 073 ó 2033-6999"
    },
    {
      "Name": "Gerencia Comercial San Miguel",
      "Street": "Prol. Ruíz Cortínes Ote.",
      "Number": "240",
      "Colony": "Jardines de San Rafael",
      "PostalCode": "67110",
      "Town": "Guadalupe",
      "State": "N.L.",
      "Telephone": "073 ó 2033-6999",
      "Latitude": 25.7029521,
      "Longitude": -100.2174203,
      "Address": "Prol. Ruíz Cortínes Ote. 240, Jardines de San Rafael, Guadalupe, N.L. Tel. 073 ó 2033-6999"
    },
    {
      "Name": "Gerencia Comercial Guadalupe",
      "Street": "Ave. Benito Juárez",
      "Number": "4301",
      "Colony": "Azteca",
      "PostalCode": "67470",
      "Town": "Guadalupe",
      "State": "N.L.",
      "Telephone": "073 ó 2033-6999",
      "Latitude": 25.6789464,
      "Longitude": -100.2420921,
      "Address": "Ave. Benito Juárez 4301, Azteca, Guadalupe, N.L. Tel. 073 ó 2033-6999"
    },
    {
      "Name": "Gerencia Comercial Contry",
      "Street": "Av. Eugenio Garza Sada Sur",
      "Number": "3755",
      "Colony": "Contry",
      "PostalCode": "64850",
      "Town": "Monterrey",
      "State": "N.L.",
      "Telephone": "073 ó 2033-6999",
      "Latitude": 25.6368327,
      "Longitude": -100.2830584,
      "Address": "Av. Eugenio Garza Sada Sur 3755, Contry, Monterrey, N.L. Tel. 073 ó 2033-6999"
    },
    {
      "Name": "Gerencia Comercial Fama",
      "Street": "Boulevard Díaz Ordaz Pte.",
      "Number": "113",
      "Colony": "La Fama",
      "PostalCode": "66350",
      "Town": "Santa Catarina",
      "State": "N.L.",
      "Telephone": "073 ó 2033-6999",
      "Latitude": 25.6744353,
      "Longitude": -100.4266979,
      "Address": "Boulevard Díaz Ordaz Pte. 113, La Fama, Santa Catarina, N.L. Tel. 073 ó 2033-6999"
    },
    {
      "Name": "Gerencia Comercial Lincoln",
      "Street": "Av. Abrham Lincoln",
      "Number": "5603",
      "Colony": "Valle Verde 2do. Sector",
      "PostalCode": "64117",
      "Town": "Monterrey",
      "State": "N.L.",
      "Telephone": "073 ó 2033-6999",
      "Latitude": 25.7384795,
      "Longitude": -100.3778769,
      "Address": "Av. Abrham Lincoln 5603, Valle Verde 2do. Sector, Monterrey, N.L. Tel. 073 ó 2033-6999"
    },
    {
      "Name": "Oficina Comercial Apodaca Centro",
      "Street": "Abasolo",
      "Number": "352-a",
      "Colony": "Centro",
      "PostalCode": "66600",
      "Town": "Apodaca",
      "State": "N.L.",
      "Telephone": "073 ó 2033-6999",
      "Latitude": 25.7787395,
      "Longitude": -100.1854378,
      "Address": "Abasolo 352-a, Centro, Apodaca, N.L. Tel. 073 ó 2033-6999"
    },
    {
      "Name": "Gerencia Comercial Apodaca El Manantial",
      "Street": "Av. Encino",
      "Number": "701",
      "Colony": "El Manantial",
      "PostalCode": "66612",
      "Town": "Apodaca",
      "State": "N.L.",
      "Telephone": "073 ó 2033-6999",
      "Latitude": 25.7857947,
      "Longitude": -100.263664,
      "Address": "Av. Encino 701, El Manantial, Apodaca, N.L. Tel. 073 ó 2033-6999"
    },
    {
      "Name": "Oficina Comercial Juárez",
      "Street": "Av. Lic. Arturo B. de La Garza",
      "Number": "1103",
      "Colony": "Joaquín Garza y Garza",
      "PostalCode": "67250",
      "Town": "Juárez",
      "State": "N.L.",
      "Telephone": "073 ó 2033-6999",
      "Latitude": 25.6503627,
      "Longitude": -100.1018809,
      "Address": "Av. Lic. Arturo B. de La Garza 1103, Joaquín Garza y Garza, Juárez, N.L. Tel. 073 ó 2033-6999"
    }
  ]
}